{"nhits": 43, "parameters": {"dataset": "restaurants-casvp", "rows": 10, "start": 0, "facet": ["code", "nom_restaurant", "type.json"], "format": "json", "timezone": "UTC"}, "records": [{"datasetid": "restaurants-casvp", "recordid": "257af888dc2719b01850e5f6752bbfc0c71d3ede", "fields": {"code": "75018", "type": "E", "nom_restaurant": "CLIGNANCOURT", "tt": [48.893493, 2.347233], "adresse": "14-16, SQUARE CLIGNANCOURT", "ville": "PARIS"}, "geometry": {"type": "Point", "coordinates": [2.347233, 48.893493]}, "record_timestamp": "2018-02-16T15:33:18.912Z"}, {"datasetid": "restaurants-casvp", "recordid": "6d458020e956dbf67570bf3d4c3ad8dd686e005a", "fields": {"code": "75006", "type": "E", "nom_restaurant": "ANDRE MALRAUX", "tt": [48.847869, 2.327529], "adresse": "112, RUE DE RENNES", "ville": "PARIS"}, "geometry": {"type": "Point", "coordinates": [2.327529, 48.847869]}, "record_timestamp": "2018-02-16T15:33:18.912Z"}, {"datasetid": "restaurants-casvp", "recordid": "61359ce3c8b11975f325fd60826784b587f96a62", "fields": {"code": "75020", "type": "E", "nom_restaurant": "SAINTS-SIMONIENS", "tt": [48.871268, 2.396821], "adresse": "18, RUE DE LA DUEE", "ville": "PARIS"}, "geometry": {"type": "Point", "coordinates": [2.396821, 48.871268]}, "record_timestamp": "2018-02-16T15:33:18.912Z"}, {"datasetid": "restaurants-casvp", "recordid": "58ef6604d1ee42e794fc800f13aed39ddf11be37", "fields": {"code": "75017", "type": "E", "nom_restaurant": "TERNES", "tt": [48.880881, 2.293319], "adresse": "28, RUE BAYEN", "ville": "PARIS"}, "geometry": {"type": "Point", "coordinates": [2.293319, 48.880881]}, "record_timestamp": "2018-02-16T15:33:18.912Z"}, {"datasetid": "restaurants-casvp", "recordid": "ce2aff2bbbf5ccd1ed6aeeba5167a40873b585d0", "fields": {"code": "75008", "type": "S", "nom_restaurant": "MARCHE DE L'EUROPE", "tt": [48.877284, 2.313452], "adresse": "11, RUE MALLEVILLE", "ville": "PARIS"}, "geometry": {"type": "Point", "coordinates": [2.313452, 48.877284]}, "record_timestamp": "2018-02-16T15:33:18.912Z"}, {"datasetid": "restaurants-casvp", "recordid": "dbf93f49d1a164f83eb77174fac6b2f20fc93f4c", "fields": {"code": "75015", "type": "E", "nom_restaurant": "LA QUINTINIE", "tt": [48.839301, 2.30718], "adresse": "18, RUE BARGUE", "ville": "PARIS"}, "geometry": {"type": "Point", "coordinates": [2.30718, 48.839301]}, "record_timestamp": "2018-02-16T15:33:18.912Z"}, {"datasetid": "restaurants-casvp", "recordid": "e4d5befa0e8f878d962f92ab6b0251d5a148887b", "fields": {"code": "75003", "type": "E", "nom_restaurant": "AU MAIRE", "tt": [48.864445, 2.357714], "adresse": "2, RUE AU MAIRE", "ville": "PARIS"}, "geometry": {"type": "Point", "coordinates": [2.357714, 48.864445]}, "record_timestamp": "2018-02-16T15:33:18.912Z"}, {"datasetid": "restaurants-casvp", "recordid": "93a076cb6e797e045a773c5ead9279b177c6a627", "fields": {"code": "75018", "type": "E", "nom_restaurant": "JOSEPH DE MAISTRE", "tt": [48.89289, 2.330458], "adresse": "88, RUE JOSEPH DE MAISTRE", "ville": "PARIS"}, "geometry": {"type": "Point", "coordinates": [2.330458, 48.89289]}, "record_timestamp": "2018-02-16T15:33:18.912Z"}, {"datasetid": "restaurants-casvp", "recordid": "c2db1675a0c3edea29918db60d2aeb9fc7a1f4f3", "fields": {"code": "75005", "type": "E", "nom_restaurant": "JARDIN DES PLANTES", "tt": [48.840346, 2.359412], "adresse": "18-22, RUE POLIVEAU", "ville": "PARIS"}, "geometry": {"type": "Point", "coordinates": [2.359412, 48.840346]}, "record_timestamp": "2018-02-16T15:33:18.912Z"}, {"datasetid": "restaurants-casvp", "recordid": "9fa2aae3cb0ab4e1d09dc564333f771b11e2d947", "fields": {"code": "75013", "type": "S"}, "record_timestamp": "2018-02-16T15:33:18.912Z"}], "facet_groups": [{"name": "code", "facets": [{"name": "75005", "count": 4, "state": "displayed", "path": "75005"}, {"name": "75013", "count": 4, "state": "displayed", "path": "75013"}, {"name": "75014", "count": 4, "state": "displayed", "path": "75014"}, {"name": "75018", "count": 4, "state": "displayed", "path": "75018"}, {"name": "75012", "count": 3, "state": "displayed", "path": "75012"}, {"name": "75015", "count": 3, "state": "displayed", "path": "75015"}, {"name": "75002", "count": 2, "state": "displayed", "path": "75002"}, {"name": "75003", "count": 2, "state": "displayed", "path": "75003"}, {"name": "75004", "count": 2, "state": "displayed", "path": "75004"}, {"name": "75009", "count": 2, "state": "displayed", "path": "75009"}, {"name": "75010", "count": 2, "state": "displayed", "path": "75010"}, {"name": "75011", "count": 2, "state": "displayed", "path": "75011"}, {"name": "75017", "count": 2, "state": "displayed", "path": "75017"}, {"name": "75020", "count": 2, "state": "displayed", "path": "75020"}, {"name": "75006", "count": 1, "state": "displayed", "path": "75006"}, {"name": "75007", "count": 1, "state": "displayed", "path": "75007"}, {"name": "75008", "count": 1, "state": "displayed", "path": "75008"}, {"name": "75016", "count": 1, "state": "displayed", "path": "75016"}, {"name": "75019", "count": 1, "state": "displayed", "path": "75019"}]}, {"name": "nom_restaurant", "facets": [{"name": "ANDRE MALRAUX", "count": 1, "state": "displayed", "path": "ANDRE MALRAUX"}, {"name": "ARAGO", "count": 1, "state": "displayed", "path": "ARAGO"}, {"name": "ARBUSTES", "count": 1, "state": "displayed", "path": "ARBUSTES"}, {"name": "AU MAIRE", "count": 1, "state": "displayed", "path": "AU MAIRE"}, {"name": "AU PETIT REMOULEUR", "count": 1, "state": "displayed", "path": "AU PETIT REMOULEUR"}, {"name": "AVE MARIA", "count": 1, "state": "displayed", "path": "AVE MARIA"}, {"name": "BEAUNIER", "count": 1, "state": "displayed", "path": "BEAUNIER"}, {"name": "BOUTEBRIE", "count": 1, "state": "displayed", "path": "BOUTEBRIE"}, {"name": "BRECHE AUX LOUPS", "count": 1, "state": "displayed", "path": "BRECHE AUX LOUPS"}, {"name": "CAULAINCOURT", "count": 1, "state": "displayed", "path": "CAULAINCOURT"}, {"name": "CHANZY", "count": 1, "state": "displayed", "path": "CHANZY"}, {"name": "CHARCOT", "count": 1, "state": "displayed", "path": "CHARCOT"}, {"name": "CLAUDE VELLEFAUX", "count": 1, "state": "displayed", "path": "CLAUDE VELLEFAUX"}, {"name": "CLIGNANCOURT", "count": 1, "state": "displayed", "path": "CLIGNANCOURT"}, {"name": "EPINETTES", "count": 1, "state": "displayed", "path": "EPINETTES"}, {"name": "GRAMONT", "count": 1, "state": "displayed", "path": "GRAMONT"}, {"name": "JARDIN DES PLANTES", "count": 1, "state": "displayed", "path": "JARDIN DES PLANTES"}, {"name": "JOSEPH DE MAISTRE", "count": 1, "state": "displayed", "path": "JOSEPH DE MAISTRE"}, {"name": "JOUVENET", "count": 1, "state": "displayed", "path": "JOUVENET"}, {"name": "L'OASIS", "count": 1, "state": "displayed", "path": "L'OASIS"}, {"name": "LA QUINTINIE", "count": 1, "state": "displayed", "path": "LA QUINTINIE"}, {"name": "LEPRINCE", "count": 1, "state": "displayed", "path": "LEPRINCE"}, {"name": "LES ARTISTES", "count": 1, "state": "displayed", "path": "LES ARTISTES"}, {"name": "MADELEINE BEJART", "count": 1, "state": "displayed", "path": "MADELEINE BEJART"}, {"name": "MAINE", "count": 1, "state": "displayed", "path": "MAINE"}, {"name": "MARCHE DE L'EUROPE", "count": 1, "state": "displayed", "path": "MARCHE DE L'EUROPE"}, {"name": "MOUFFETARD", "count": 1, "state": "displayed", "path": "MOUFFETARD"}, {"name": "NAVARIN", "count": 1, "state": "displayed", "path": "NAVARIN"}, {"name": "OMER TALON", "count": 1, "state": "displayed", "path": "OMER TALON"}, {"name": "OSCAR ROTY", "count": 1, "state": "displayed", "path": "OSCAR ROTY"}, {"name": "PORT ROYAL", "count": 1, "state": "displayed", "path": "PORT ROYAL"}, {"name": "SAINT-BLAISE", "count": 1, "state": "displayed", "path": "SAINT-BLAISE"}, {"name": "SAINT-ELOI", "count": 1, "state": "displayed", "path": "SAINT-ELOI"}, {"name": "SAINT-SAUVEUR", "count": 1, "state": "displayed", "path": "SAINT-SAUVEUR"}, {"name": "SAINTS-SIMONIENS", "count": 1, "state": "displayed", "path": "SAINTS-SIMONIENS"}, {"name": "TANGER", "count": 1, "state": "displayed", "path": "TANGER"}, {"name": "TERNES", "count": 1, "state": "displayed", "path": "TERNES"}, {"name": "TOLBIAC", "count": 1, "state": "displayed", "path": "TOLBIAC"}, {"name": "TOUR DES DAMES", "count": 1, "state": "displayed", "path": "TOUR DES DAMES"}, {"name": "TOURELLES", "count": 1, "state": "displayed", "path": "TOURELLES"}, {"name": "VAUGELAS", "count": 1, "state": "displayed", "path": "VAUGELAS"}, {"name": "VERDUN", "count": 1, "state": "displayed", "path": "VERDUN"}]}]}